id,titulo,fechaInicio,fechaFin,latitud,longitud,direccion,descripcion,enlace,categoria
1,Festival de Jazz,2025-05-15,2025-05-18,40.416775,-3.703790,"Plaza Mayor, Madrid, España","Festival anual con los mejores músicos de jazz. Participan artistas nacionales e internacionales con una variedad de estilos.",https://ejemplo.com/jazz-festival,musica
2,Exposición de Arte,2025-05-10,2025-06-20,40.407015,-3.691163,"Museo del Prado, Madrid, España","Exhibición de arte contemporáneo con artistas internacionales. Incluye obras de pintura, escultura y arte digital.",https://ejemplo.com/expo-arte,arte
3,Conferencia Tecnológica,2025-05-25,2025-05-27,40.422371,-3.714913,"IFEMA, Madrid, España","Las últimas tendencias en IA y desarrollo web. Charlas y talleres sobre innovación tecnológica.",https://ejemplo.com/tech-conf,tecnologia
4,Feria Gastronómica,2025-06-01,2025-06-05,40.452337,-3.688913,"Parque Juan Carlos I, Madrid, España","Degustación de platos típicos y talleres culinarios. Participan chefs nacionales e internacionales.",https://ejemplo.com/feria-gastronomica,gastronomia
5,Concierto de Rock,2025-05-20,2025-05-20,40.424423,-3.671635,"WiZink Center, Madrid, España","Gran concierto con bandas internacionales de rock alternativo y heavy metal.",https://ejemplo.com/concierto-rock,musica
6,Maratón de Madrid,2025-06-10,2025-06-10,40.418889,-3.691944,"Parque del Retiro, Madrid, España","Carrera anual por las calles de Madrid. Distancias de 10K, media maratón y maratón completa.",https://ejemplo.com/maraton,deporte
7,Feria del Libro,2025-05-30,2025-06-15,40.411335,-3.689658,"Parque del Retiro, Madrid, España","Feria anual con presentaciones de libros, firmas de autores y actividades culturales.",https://ejemplo.com/feria-libro,cultura
8,Festival de Cine,2025-06-05,2025-06-12,40.429154,-3.693060,"Cines Ideal, Madrid, España","Proyección de películas internacionales y españolas. Incluye charlas con directores y actores.",https://ejemplo.com/festival-cine,cultura
9,Workshop de Fotografía,2025-05-18,2025-05-19,40.424841,-3.698635,"Centro Cultural Conde Duque, Madrid, España","Taller práctico de fotografía urbana y retrato. Incluye sesiones teóricas y prácticas por la ciudad.",https://ejemplo.com/workshop-foto,arte